{"latest":[],"extended":[{"event_id":"3648","site_id":"19","event_start":"2017-09-29 14:30:00","latest_release_id":"10694","latest_trigger_id":"3202","validity":"2017-10-03 16:00:00","status":"extended","id":"19","name":"jor","sitio":null,"barangay":"Poblacion 1","municipality":"San Jorge","province":"Samar","region":"VIII","latitude":"11.97779","longitude":"124.82491","households":"At least 6 households (16 residents), St. Isidore Parish Church and Convent","season":"1","data_timestamp":"2017-10-05 11:30:00","release_time":"5 October 2017<br>12:00","internal_alert_level":"A0","trigger_type":"R","trigger_timestamp":"2017-10-02 14:00:00","start":1507089600,"end":1507262400,"day":9},{"event_id":"3649","site_id":"27","event_start":"2017-09-29 16:30:00","latest_release_id":"10693","latest_trigger_id":"3189","validity":"2017-10-02 12:00:00","status":"extended","id":"27","name":"mag","sitio":"Purok 1, 2 and 3","barangay":"Magsaysay","municipality":"Kibawe","province":"Bukidnon","region":"X","latitude":"7.51923","longitude":"125.05980","households":"At least 20 households, barangay hall, day care center, chapel","season":"1","data_timestamp":"2017-10-05 11:30:00","release_time":"5 October 2017<br>12:00","internal_alert_level":"ND","trigger_type":"R","trigger_timestamp":"2017-09-29 17:30:00","start":1507003200,"end":1507176000,"day":10},{"event_id":"3651","site_id":"50","event_start":"2017-10-02 17:00:00","latest_release_id":"10690","latest_trigger_id":"3216","validity":"2017-10-05 08:00:00","status":"extended","id":"50","name":"umi","sitio":null,"barangay":"Umingan","municipality":"Alimodian","province":"Iloilo","region":"VI","latitude":"10.90807","longitude":"122.32777","households":"At least 8 households","season":"2","data_timestamp":"2017-10-05 07:30:00","release_time":"5 October 2017<br>07:59","internal_alert_level":"A0","trigger_type":"R","trigger_timestamp":"2017-10-03 16:30:00","start":1507262400,"end":1507435200,"day":7}],"overdue":[{"event_id":"3652","site_id":"18","event_start":"2017-10-03 11:00:00","latest_release_id":"10691","latest_trigger_id":"3212","validity":"2017-10-05 16:00:00","status":"on-going","id":"18","name":"ina","sitio":"Sambag","barangay":"Inabasan","municipality":"Maasin","province":"Iloilo","region":"VI","latitude":"10.86991","longitude":"122.43617","households":"13 households (71 residents)","season":"2","data_timestamp":"2017-10-05 11:30:00","release_time":"5 October 2017<br>11:51","internal_alert_level":"A1-Rx","trigger_type":"R","trigger_timestamp":"2017-10-03 14:00:00"},{"event_id":"3699","site_id":"33","event_start":"2017-10-05 13:39:00","latest_release_id":"10695","latest_trigger_id":"3222","validity":"2017-10-06 16:00:00","status":"on-going","id":"33","name":"msu","sitio":"Upper Mesolong","barangay":"Sto. Nino","municipality":"Talaingod","province":"Davao del Norte","region":"XI","latitude":"7.62874","longitude":"125.54034","households":"At least 7 households, Kapalong-Talaingod-Valencia Road","season":"1","data_timestamp":"2017-10-05 13:39:00","release_time":"5 October 2017<br>13:39","internal_alert_level":"A1-R","trigger_type":"R","trigger_timestamp":"2017-10-05 13:39:00"},{"event_id":"3698","site_id":"37","event_start":"2017-10-03 13:30:00","latest_release_id":"10692","latest_trigger_id":"3221","validity":"2017-10-05 16:00:00","status":"on-going","id":"37","name":"par","sitio":null,"barangay":"Parasanon","municipality":"Pinabacdao","province":"Samar","region":"VIII","latitude":"11.51487","longitude":"125.02550","households":"At least 14 households (50 residents), Maharlika Highway","season":"1","data_timestamp":"2017-10-05 11:30:00","release_time":"5 October 2017<br>11:52","internal_alert_level":"A1-R","trigger_type":"R","trigger_timestamp":"2017-10-04 13:00:00"}]}